[{"id", "name", "description", "type", "year_built", "lat", "lng", "province", "image_url", "source"}, "id": 85, "name": "Statue of Cecil John Rhodes", "description": "Bronze statue of Cecil John Rhodes seated on a horse, located in Company's Garden, Cape Town.", "type": "statue", "year_built": 1908, "lat": -33.925, "lng": 18.417, "province": "Western Cape", "image_url": null, "source": "Wikipedia / Statue of Cecil John Rhodes" }, { "id": 86, "name": "Statue of Jan van Riebeeck", "description": "Bronze statue of Jan van Riebeeck, the Dutch colonial administrator who founded Cape Town, located on Heerengracht, Cape Town.", "type": "statue", "year_built": 1899, "lat": -33.9255, "lng": 18.4237, "province": "Western Cape", "image_url": null, "source": "Wikipedia / Statue of Jan van Riebeeck" }, { "id": 87, "name": "Nelson Mandela Statue (Johannesburg)", "description": "9-meter bronze statue of Nelson Mandela standing on the balcony of Johannesburg City Hall, where he gave his first public speech after release from prison.", "type": "statue", "year_built": 2013, "lat": -26.2046, "lng": 28.0476, "province": "Gauteng", "image_url": null, "source": "Wikipedia / Nelson Mandela Statue (Johannesburg)" }, { "id": 88, "name": "Mahatma Gandhi Statue", "description": "Statue of Mahatma Gandhi located in Gandhi Square, Johannesburg, commemorating his time in South Africa.", "type": "statue", "year_built": 2003, "lat": -26.204, "lng": 28.047, "province": "Gauteng", "image_url": null, "source": "Wikipedia / Mahatma Gandhi Statue" }, { "id": 89, "name": "Shaka Zulu Statue", "description": "Bronze statue of King Shaka Zulu on the Durban beachfront, overlooking the Indian Ocean.", "type": "statue", "year_built": 1998, "lat": -29.858, "lng": 31.021, "province": "KwaZulu-Natal", "image_url": null, "source": "Wikipedia / Shaka Zulu Statue" }, { "id": 90, "name": "Steve Biko Statue", "description": "Statue of anti-apartheid activist Steve Biko located in Grahamstown (Makhanda), Eastern Cape.", "type": "statue", "year_built": 1997, "lat": -33.3108, "lng": 26.5249, "province": "Eastern Cape", "image_url": null, "source": "Wikipedia / Steve Biko Statue" }, { "id": 91, "name": "Statue of J.B.M. Hertzog", "description": "Statue of former Prime Minister James Barry Munnik Hertzog in Bloemfontein, Free State.", "type": "statue", "year_built": 1975, "lat": -29.121, "lng": 26.214, "province": "Free State", "image_url": null, "source": "Wikipedia / J.B.M. Hertzog Statue" }, { "id": 92, "name": "Statue of C.F. Swart", "description": "Statue of C.F. Swart, first State President of the Republic of South Africa, located in Bloemfontein.", "type": "statue", "year_built": 1965, "lat": -29.117, "lng": 26.214, "province": "Free State", "image_url": null, "source": "Wikipedia / C.F. Swart Statue" }, { "id": 93, "name": "Statue of Louis Botha", "description": "Equestrian statue of General Louis Botha, first Prime Minister of the Union of South Africa, located in Pretoria.", "type": "statue", "year_built": 1932, "lat": -25.746, "lng": 28.187, "province": "Gauteng", "image_url": null, "source": "Wikipedia / Louis Botha Statue" }, { "id": 94, "name": "Jan Smuts Statue", "description": "Statue of Jan Smuts, South African statesman and military leader, located near the Union Buildings in Pretoria.", "type": "statue", "year_built": 1949, "lat": -25.756, "lng": 28.229, "province": "Gauteng", "image_url": null, "source": "Wikipedia / Jan Smuts Statue" }, { "id": 95, "name": "Statue of Andries Pretorius", "description": "Statue of Andries Pretorius, leader of the Voortrekkers, located in Church Square, Pretoria.", "type": "statue", "year_built": 1888, "lat": -25.746, "lng": 28.187, "province": "Gauteng", "image_url": null, "source": "Wikipedia / Andries Pretorius Statue" }, { "id": 96, "name": "Statue of Sir George Grey", "description": "Statue of Sir George Grey, Governor of the Cape Colony, located in Cape Town.", "type": "statue", "year_built": 1863, "lat": -33.925, "lng": 18.423, "province": "Western Cape", "image_url": null, "source": "Wikipedia / Sir George Grey Statue" }, { "id": 97, "name": "Paul Kruger Statue", "description": "Bronze statue of Paul Kruger, President of the South African Republic, located at Kruger Gate near Hazyview.", "type": "statue", "year_built": null, "lat": -24.9814, "lng": 31.4853, "province": "Mpumalanga", "image_url": null, "source": "Wikipedia / Paul Kruger Statue" }, { "id": 98, "name": "Queen Victoria Statue", "description": "Statue of Queen Victoria located in Pietermaritzburg, KwaZulu-Natal.", "type": "statue", "year_built": 1887, "lat": -29.6007, "lng": 30.3798, "province": "KwaZulu-Natal", "image_url": null, "source": "Wikipedia / Queen Victoria Statue (Pietermaritzburg)" }, { "id": 99, "name": "Queen Victoria Statue (Port Elizabeth)", "description": "Statue of Queen Victoria located in Port Elizabeth, Eastern Cape.", "type": "statue", "year_built": 1887, "lat": -33.9608, "lng": 25.6022, "province": "Eastern Cape", "image_url": null, "source": "Wikipedia / Queen Victoria Statue (Port Elizabeth)" }]